,gtfs_stop_id,stop_name,borough,gtfs_latitude,gtfs_longitude,north_direction_label,south_direction_label,daytime_routes,structure,ada
0,R01,Astoria-Ditmars Blvd,Queens,40.775036,-73.912034,Last Stop,Manhattan,N W,Elevated,0
1,R03,Astoria Blvd,Queens,40.770258,-73.917843,Astoria,Manhattan,N W,Elevated,1
2,R04,30 Av,Queens,40.766779,-73.921479,Astoria,Manhattan,N W,Elevated,0
3,R05,Broadway,Queens,40.76182,-73.925508,Astoria,Manhattan,N W,Elevated,0
4,R06,36 Av,Queens,40.756804,-73.929575,Astoria,Manhattan,N W,Elevated,0
5,R08,39 Av-Dutch Kills,Queens,40.752882,-73.932755,Astoria,Manhattan,N W,Elevated,0
6,R11,Lexington Av/59 St,Manhattan,40.76266,-73.967258,Queens,Downtown,N R W,Subway,0
7,R13,5 Av/59 St,Manhattan,40.764811,-73.973347,Queens,Downtown,N R W,Subway,0
8,R14,57 St-7 Av,Manhattan,40.764664,-73.980658,Uptown,Downtown,N Q R W,Subway,1
9,R15,49 St,Manhattan,40.759901,-73.984139,Uptown,Downtown,N R W,Subway,2
10,R16,Times Sq-42 St,Manhattan,40.754672,-73.986754,Uptown,Downtown,N Q R W,Subway,1
11,R17,34 St-Herald Sq,Manhattan,40.749567,-73.98795,Uptown,Downtown,N Q R W,Subway,1
12,R18,28 St,Manhattan,40.745494,-73.988691,Uptown,Downtown,R W,Subway,0
13,R19,23 St,Manhattan,40.741303,-73.989344,Uptown,Downtown,R W,Subway,0
14,R20,14 St-Union Sq,Manhattan,40.735736,-73.990568,Uptown,Downtown,N Q R W,Subway,1
15,R21,8 St-NYU,Manhattan,40.730328,-73.992629,Uptown,Downtown,R W,Subway,0
16,R22,Prince St,Manhattan,40.724329,-73.997702,Uptown,Downtown,R W,Subway,0
17,R23,Canal St,Manhattan,40.719527,-74.001775,Uptown,Downtown,R W,Subway,0
18,Q01,Canal St,Manhattan,40.718383,-74.00046,Uptown,Downtown,N Q,Subway,0
19,R24,City Hall,Manhattan,40.713282,-74.006978,Uptown,Downtown,R W,Subway,0
20,R25,Cortlandt St,Manhattan,40.710668,-74.011029,Uptown,Downtown,R W,Subway,1
21,R26,Rector St,Manhattan,40.70722,-74.013342,Uptown,Downtown,R W,Subway,0
22,R27,Whitehall St-South Ferry,Manhattan,40.703087,-74.012994,Uptown,Downtown,R W,Subway,0
23,R28,Court St,Brooklyn,40.6941,-73.991777,Manhattan,Southbound,R,Subway,0
24,R29,Jay St-MetroTech,Brooklyn,40.69218,-73.985942,Manhattan,Southbound,R,Subway,1
25,R30,DeKalb Av,Brooklyn,40.690635,-73.981824,Manhattan,Southbound,B Q R,Subway,1
26,R31,Atlantic Av-Barclays Ctr,Brooklyn,40.683666,-73.97881,Manhattan,Southbound,D N R,Subway,1
27,R32,Union St,Brooklyn,40.677316,-73.98311,Manhattan,Southbound,R,Subway,0
28,R33,4 Av-9 St,Brooklyn,40.670847,-73.988302,Manhattan,Southbound,R,Subway,0
29,R34,Prospect Av,Brooklyn,40.665414,-73.992872,Manhattan,Southbound,R,Subway,0
30,R35,25 St,Brooklyn,40.660397,-73.998091,Manhattan,Southbound,R,Subway,0
31,R36,36 St,Brooklyn,40.655144,-74.003549,Manhattan,Southbound,D N R,Subway,0
32,R39,45 St,Brooklyn,40.648939,-74.010006,Manhattan,Southbound,R,Subway,0
33,R40,53 St,Brooklyn,40.645069,-74.014034,Manhattan,Southbound,R,Subway,0
34,R41,59 St,Brooklyn,40.641362,-74.017881,Manhattan,Southbound,N R,Subway,1
35,R42,Bay Ridge Av,Brooklyn,40.634967,-74.023377,Manhattan,Bay Ridge,R,Subway,0
36,R43,77 St,Brooklyn,40.629742,-74.02551,Manhattan,Bay Ridge,R,Subway,0
37,R44,86 St,Brooklyn,40.622687,-74.028398,Manhattan,Bay Ridge,R,Subway,1
38,R45,Bay Ridge-95 St,Brooklyn,40.616622,-74.030876,Manhattan,Last Stop,R,Subway,0
39,D24,Atlantic Av-Barclays Ctr,Brooklyn,40.68446,-73.97689,Manhattan,Southbound,B Q,Subway,1
40,D25,7 Av,Brooklyn,40.67705,-73.972367,Manhattan,Southbound,B Q,Subway,0
41,D26,Prospect Park,Brooklyn,40.661614,-73.962246,Northbound,Southbound,B Q S,Open Cut,1
42,D27,Parkside Av,Brooklyn,40.655292,-73.961495,Manhattan,Southbound,Q,Open Cut,0
43,D28,Church Av,Brooklyn,40.650527,-73.962982,Manhattan,Southbound,B Q,Open Cut,0
44,D29,Beverley Rd,Brooklyn,40.644031,-73.964492,Manhattan,Southbound,Q,Open Cut,0
45,D30,Cortelyou Rd,Brooklyn,40.640927,-73.963891,Manhattan,Southbound,Q,Open Cut,0
46,D31,Newkirk Plaza,Brooklyn,40.635082,-73.962793,Manhattan,Southbound,B Q,Open Cut,0
47,D32,Avenue H,Brooklyn,40.62927,-73.961639,Manhattan,Southbound,Q,Open Cut,1
48,D33,Avenue J,Brooklyn,40.625039,-73.960803,Manhattan,Southbound,Q,Open Cut,0
49,D34,Avenue M,Brooklyn,40.617618,-73.959399,Manhattan,Southbound,Q,Open Cut,0
50,D35,Kings Hwy,Brooklyn,40.60867,-73.957734,Manhattan,Southbound,B Q,Open Cut,1
51,D37,Avenue U,Brooklyn,40.5993,-73.955929,Manhattan,Southbound,Q,Open Cut,0
52,D38,Neck Rd,Brooklyn,40.595246,-73.955161,Manhattan,Southbound,Q,Open Cut,0
53,D39,Sheepshead Bay,Brooklyn,40.586896,-73.954155,Manhattan,Southbound,B Q,Open Cut,0
54,D40,Brighton Beach,Brooklyn,40.577621,-73.961376,Manhattan,Southbound,B Q,Elevated,0
55,D41,Ocean Pkwy,Brooklyn,40.576312,-73.968501,Manhattan,Coney Island,Q,Elevated,0
56,D42,W 8 St-NY Aquarium,Brooklyn,40.576127,-73.975939,Manhattan,Coney Island,F Q,Elevated,0
57,D43,Coney Island-Stillwell Av,Brooklyn,40.577422,-73.981233,Manhattan,Last Stop,D F N Q,Viaduct,1
58,B12,9 Av,Brooklyn,40.646292,-73.994324,Manhattan,Southbound,D,Open Cut,0
59,B13,Fort Hamilton Pkwy,Brooklyn,40.640914,-73.994304,Manhattan,Southbound,D,Elevated,0
60,B14,50 St,Brooklyn,40.63626,-73.994791,Manhattan,Southbound,D,Elevated,0
61,B15,55 St,Brooklyn,40.631435,-73.995476,Manhattan,Southbound,D,Elevated,0
62,B16,62 St,Brooklyn,40.626472,-73.996895,Manhattan,Southbound,D,Elevated,1
63,B17,71 St,Brooklyn,40.619589,-73.998864,Manhattan,Southbound,D,Elevated,0
64,B18,79 St,Brooklyn,40.613501,-74.00061,Manhattan,Southbound,D,Elevated,0
65,B19,18 Av,Brooklyn,40.607954,-74.001736,Manhattan,Southbound,D,Elevated,0
66,B20,20 Av,Brooklyn,40.604556,-73.998168,Manhattan,Southbound,D,Elevated,0
67,B21,Bay Pkwy,Brooklyn,40.601875,-73.993728,Manhattan,Southbound,D,Elevated,1
68,B22,25 Av,Brooklyn,40.597704,-73.986829,Manhattan,Coney Island,D,Elevated,0
69,B23,Bay 50 St,Brooklyn,40.588841,-73.983765,Manhattan,Coney Island,D,Elevated,0
70,N02,8 Av,Brooklyn,40.635064,-74.011719,Manhattan,Coney Island,N,Open Cut,1
71,N03,Fort Hamilton Pkwy,Brooklyn,40.631386,-74.005351,Manhattan,Coney Island,N,Open Cut,0
72,N04,New Utrecht Av,Brooklyn,40.624842,-73.996353,Manhattan,Coney Island,N,Open Cut,1
73,N05,18 Av,Brooklyn,40.620671,-73.990414,Manhattan,Coney Island,N,Open Cut,0
74,N06,20 Av,Brooklyn,40.61741,-73.985026,Manhattan,Coney Island,N,Open Cut,0
75,N07,Bay Pkwy,Brooklyn,40.611815,-73.981848,Manhattan,Coney Island,N,Open Cut,0
76,N08,Kings Hwy,Brooklyn,40.603923,-73.980353,Manhattan,Coney Island,N,Open Cut,0
77,N09,Avenue U,Brooklyn,40.597473,-73.979137,Manhattan,Coney Island,N,Open Cut,0
78,N10,86 St,Brooklyn,40.592721,-73.97823,Manhattan,Coney Island,N,Open Cut,0
79,J12,121 St,Queens,40.700492,-73.828294,Jamaica,Manhattan,J Z,Elevated,0
80,J13,111 St,Queens,40.697418,-73.836345,Jamaica,Manhattan,J,Elevated,0
81,J14,104 St,Queens,40.695178,-73.84433,Jamaica,Manhattan,J Z,Elevated,0
82,J15,Woodhaven Blvd,Queens,40.693879,-73.851576,Jamaica,Manhattan,J Z,Elevated,0
83,J16,85 St-Forest Pkwy,Queens,40.692435,-73.86001,Jamaica,Manhattan,J,Elevated,0
84,J17,75 St-Elderts Ln,Queens,40.691324,-73.867139,Jamaica,Manhattan,J Z,Elevated,0
85,J19,Cypress Hills,Brooklyn,40.689941,-73.87255,Queens,Manhattan,J,Elevated,0
86,J20,Crescent St,Brooklyn,40.683194,-73.873785,Outbound,Manhattan,J Z,Elevated,0
87,J21,Norwood Av,Brooklyn,40.68141,-73.880039,Outbound,Manhattan,J Z,Elevated,0
88,J22,Cleveland St,Brooklyn,40.679947,-73.884639,Outbound,Manhattan,J,Elevated,0
89,J23,Van Siclen Av,Brooklyn,40.678024,-73.891688,Outbound,Manhattan,J Z,Elevated,0
90,J24,Alabama Av,Brooklyn,40.676992,-73.898654,Outbound,Manhattan,J Z,Elevated,0
91,J27,Broadway Junction,Brooklyn,40.679498,-73.904512,Outbound,Manhattan,J Z,Elevated,0
92,J28,Chauncey St,Brooklyn,40.682893,-73.910456,Outbound,Manhattan,J Z,Elevated,0
93,J29,Halsey St,Brooklyn,40.68637,-73.916559,Outbound,Manhattan,J,Elevated,0
94,J30,Gates Av,Brooklyn,40.68963,-73.92227,Outbound,Manhattan,J Z,Elevated,0
95,J31,Kosciuszko St,Brooklyn,40.693342,-73.928814,Outbound,Manhattan,J,Elevated,0
96,M11,Myrtle Av,Brooklyn,40.697207,-73.935657,Outbound,Manhattan,M J Z,Elevated,0
97,M12,Flushing Av,Brooklyn,40.70026,-73.941126,Outbound,Manhattan,M J,Elevated,1
98,M13,Lorimer St,Brooklyn,40.703869,-73.947408,Outbound,Manhattan,M J,Elevated,0
99,M14,Hewes St,Brooklyn,40.70687,-73.953431,Outbound,Manhattan,M J,Elevated,0
100,M16,Marcy Av,Brooklyn,40.708359,-73.957757,Outbound,Manhattan,M J Z,Elevated,1
101,M18,Delancey St-Essex St,Manhattan,40.718315,-73.987437,Brooklyn,Inbound,M J Z,Subway,0
102,M19,Bowery,Manhattan,40.72028,-73.993915,Brooklyn,Downtown,J Z,Subway,0
103,M20,Canal St,Manhattan,40.718092,-73.999892,Brooklyn,Downtown,J Z,Subway,0
104,M21,Chambers St,Manhattan,40.713243,-74.003401,Brooklyn,Downtown,J Z,Subway,1
105,M22,Fulton St,Manhattan,40.710374,-74.007582,Brooklyn,Downtown,J Z,Subway,1
106,M23,Broad St,Manhattan,40.706476,-74.011056,Brooklyn,Last Stop,J Z,Subway,0
107,M01,Middle Village-Metropolitan Av,Queens,40.711396,-73.889601,Inbound,Last Stop,M,Elevated,1
108,M04,Fresh Pond Rd,Queens,40.706186,-73.895877,Inbound,Middle Village,M,Elevated,0
109,M05,Forest Av,Queens,40.704423,-73.903077,Inbound,Middle Village,M,Elevated,0
110,M06,Seneca Av,Queens,40.702762,-73.90774,Inbound,Middle Village,M,Elevated,0
111,M08,Myrtle-Wyckoff Avs,Brooklyn,40.69943,-73.912385,Inbound,Middle Village,M,Elevated,1
112,M09,Knickerbocker Av,Brooklyn,40.698664,-73.919711,Inbound,Middle Village,M,Elevated,0
113,M10,Central Av,Brooklyn,40.697857,-73.927397,Inbound,Middle Village,M,Elevated,0
114,L01,8 Av,Manhattan,40.739777,-74.002578,Last Stop,Brooklyn,L,Subway,1
115,L02,6 Av,Manhattan,40.737335,-73.996786,West Side,Brooklyn,L,Subway,1
116,L03,14 St-Union Sq,Manhattan,40.734789,-73.99073,West Side,Brooklyn,L,Subway,1
117,L05,3 Av,Manhattan,40.732849,-73.986122,West Side,Brooklyn,L,Subway,0
118,L06,1 Av,Manhattan,40.730953,-73.981628,West Side,Brooklyn,L,Subway,1
119,L08,Bedford Av,Brooklyn,40.717304,-73.956872,Manhattan,Outbound,L,Subway,1
120,L10,Lorimer St,Brooklyn,40.714063,-73.950275,Manhattan,Outbound,L,Subway,1
121,L11,Graham Av,Brooklyn,40.714565,-73.944053,Manhattan,Outbound,L,Subway,0
122,L12,Grand St,Brooklyn,40.711926,-73.94067,Manhattan,Outbound,L,Subway,1
123,L13,Montrose Av,Brooklyn,40.707739,-73.93985,Manhattan,Outbound,L,Subway,0
124,L14,Morgan Av,Brooklyn,40.706152,-73.933147,Manhattan,Outbound,L,Subway,0
125,L15,Jefferson St,Brooklyn,40.706607,-73.922913,Manhattan,Outbound,L,Subway,0
126,L16,DeKalb Av,Brooklyn,40.703811,-73.918425,Manhattan,Outbound,L,Subway,0
127,L17,Myrtle-Wyckoff Avs,Brooklyn,40.699814,-73.911586,Manhattan,Outbound,L,Subway,1
128,L19,Halsey St,Queens,40.695602,-73.904084,Manhattan,Outbound,L,Subway,0
129,L20,Wilson Av,Brooklyn,40.688764,-73.904046,Manhattan,Outbound,L,Subway,2
130,L21,Bushwick Av-Aberdeen St,Brooklyn,40.682829,-73.905249,Manhattan,Outbound,L,Subway,0
131,L22,Broadway Junction,Brooklyn,40.678856,-73.90324,Manhattan,Outbound,L,Elevated,0
132,L24,Atlantic Av,Brooklyn,40.675345,-73.903097,Manhattan,Canarsie,L,Elevated,0
133,L25,Sutter Av,Brooklyn,40.669367,-73.901975,Manhattan,Canarsie,L,Elevated,0
134,L26,Livonia Av,Brooklyn,40.664038,-73.900571,Manhattan,Canarsie,L,Elevated,1
135,L27,New Lots Av,Brooklyn,40.658733,-73.899232,Manhattan,Canarsie,L,Elevated,0
136,L28,East 105 St,Brooklyn,40.650573,-73.899485,Manhattan,Canarsie,L,At Grade,0
137,L29,Canarsie-Rockaway Pkwy,Brooklyn,40.646654,-73.90185,Manhattan,Last Stop,L,At Grade,1
138,S01,Franklin Av,Brooklyn,40.680596,-73.955827,Last Stop,Prospect Park,S,Elevated,1
139,S03,Park Pl,Brooklyn,40.674772,-73.957624,Franklin Av,Prospect Park,S,Open Cut,1
140,S04,Botanic Garden,Brooklyn,40.670343,-73.959245,Franklin Av,Prospect Park,S,Open Cut,0
141,A02,Inwood-207 St,Manhattan,40.868072,-73.919899,Last Stop,Downtown,A,Subway,1
142,A03,Dyckman St,Manhattan,40.865491,-73.927271,Uptown,Downtown,A,Subway,0
143,A05,190 St,Manhattan,40.859022,-73.93418,Uptown,Downtown,A,Subway,0
144,A06,181 St,Manhattan,40.851695,-73.937969,Uptown,Downtown,A,Subway,1
145,A07,175 St,Manhattan,40.847391,-73.939704,Uptown,Downtown,A,Subway,1
146,A09,168 St,Manhattan,40.840719,-73.939561,Uptown,Downtown,A C,Subway,1
147,A10,163 St-Amsterdam Av,Manhattan,40.836013,-73.939892,Uptown,Downtown,C,Subway,0
148,A11,155 St,Manhattan,40.830518,-73.941514,Uptown,Downtown,C,Subway,0
149,A12,145 St,Manhattan,40.824783,-73.944216,Uptown,Downtown,A C,Subway,0
150,D13,145 St,Manhattan,40.824783,-73.944216,Uptown,Downtown,B D,Subway,0
151,A14,135 St,Manhattan,40.817894,-73.947649,Uptown,Downtown,C B,Subway,0
152,A15,125 St,Manhattan,40.811109,-73.952343,Uptown,Downtown,A C B D,Subway,1
153,A16,116 St,Manhattan,40.805085,-73.954882,Uptown,Downtown,C B,Subway,0
154,A17,Cathedral Pkwy (110 St),Manhattan,40.800603,-73.958161,Uptown,Downtown,C B,Subway,0
155,A18,103 St,Manhattan,40.796092,-73.961454,Uptown,Downtown,C B,Subway,0
156,A19,96 St,Manhattan,40.791642,-73.964696,Uptown,Downtown,C B,Subway,0
157,A20,86 St,Manhattan,40.785868,-73.968916,Uptown,Downtown,C B,Subway,0
158,A21,81 St-Museum of Natural History,Manhattan,40.781433,-73.972143,Uptown,Downtown,C B,Subway,0
159,A22,72 St,Manhattan,40.775594,-73.97641,Uptown,Downtown,C B,Subway,0
160,A24,59 St-Columbus Circle,Manhattan,40.768296,-73.981736,Uptown,Downtown,A C B D,Subway,1
161,A25,50 St,Manhattan,40.762456,-73.985984,Uptown,Downtown,C E,Subway,2
162,A27,42 St-Port Authority Bus Terminal,Manhattan,40.757308,-73.989735,Uptown,Downtown,A C E,Subway,1
163,A28,34 St-Penn Station,Manhattan,40.752287,-73.993391,Uptown,Downtown,A C E,Subway,1
164,A30,23 St,Manhattan,40.745906,-73.998041,Uptown,Downtown,C E,Subway,0
165,A31,14 St,Manhattan,40.740893,-74.00169,Uptown,Downtown,A C E,Subway,1
166,A32,W 4 St-Wash Sq,Manhattan,40.732338,-74.000495,Uptown,Downtown,A C E,Subway,1
167,D20,W 4 St-Wash Sq,Manhattan,40.732338,-74.000495,Uptown,Downtown,B D F M,Subway,1
168,A33,Spring St,Manhattan,40.726227,-74.003739,Uptown,Downtown,C E,Subway,0
169,A34,Canal St,Manhattan,40.720824,-74.005229,Uptown,Downtown,A C E,Subway,0
170,A36,Chambers St,Manhattan,40.714111,-74.008585,Uptown,Brooklyn,A C,Subway,0
171,E01,World Trade Center,Manhattan,40.712582,-74.009781,Uptown,Last Stop,E,Subway,1
172,A38,Fulton St,Manhattan,40.710197,-74.007691,Uptown,Brooklyn,A C,Subway,1
173,A40,High St,Brooklyn,40.699337,-73.990531,Manhattan,Outbound,A C,Subway,0
174,A41,Jay St-MetroTech,Brooklyn,40.692338,-73.987342,Manhattan,Outbound,A C F,Subway,1
175,A42,Hoyt-Schermerhorn Sts,Brooklyn,40.688484,-73.985001,Westbound,Queens,A C G,Subway,0
176,A43,Lafayette Av,Brooklyn,40.686113,-73.973946,Manhattan,Outbound,C,Subway,0
177,A44,Clinton-Washington Avs,Brooklyn,40.683263,-73.965838,Manhattan,Outbound,C,Subway,0
178,A45,Franklin Av,Brooklyn,40.68138,-73.956848,Manhattan,Outbound,C,Subway,1
179,A46,Nostrand Av,Brooklyn,40.680438,-73.950426,Manhattan,Outbound,A C,Subway,0
180,A47,Kingston-Throop Avs,Brooklyn,40.679921,-73.940858,Manhattan,Outbound,C,Subway,0
181,A48,Utica Av,Brooklyn,40.679364,-73.930729,Manhattan,Outbound,A C,Subway,1
182,A49,Ralph Av,Brooklyn,40.678822,-73.920786,Manhattan,Outbound,C,Subway,0
183,A50,Rockaway Av,Brooklyn,40.67834,-73.911946,Manhattan,Outbound,C,Subway,0
184,A51,Broadway Junction,Brooklyn,40.678334,-73.905316,Manhattan,Outbound,A C,Subway,0
185,A52,Liberty Av,Brooklyn,40.674542,-73.896548,Manhattan,Outbound,C,Subway,0
186,A53,Van Siclen Av,Brooklyn,40.67271,-73.890358,Manhattan,Outbound,C,Subway,0
187,A54,Shepherd Av,Brooklyn,40.67413,-73.88075,Manhattan,Outbound,C,Subway,0
188,A55,Euclid Av,Brooklyn,40.675377,-73.872106,Manhattan,Queens,A C,Subway,1
189,A57,Grant Av,Brooklyn,40.677044,-73.86505,Manhattan,Queens,A,Subway,0
190,A59,80 St,Queens,40.679371,-73.858992,Manhattan,Outbound,A,Elevated,0
191,A60,88 St,Queens,40.679843,-73.85147,Manhattan,Outbound,A,Elevated,0
192,A61,Rockaway Blvd,Queens,40.680429,-73.843853,Manhattan,Outbound,A,Elevated,0
193,A63,104 St,Queens,40.681711,-73.837683,Manhattan,Ozone Park,A,Elevated,0
194,A64,111 St,Queens,40.684331,-73.832163,Manhattan,Ozone Park,A,Elevated,0
195,A65,Ozone Park-Lefferts Blvd,Queens,40.685951,-73.825798,Manhattan,Last Stop,A,Elevated,1
196,H01,Aqueduct Racetrack,Queens,40.672369,-73.835254,Manhattan,Rockaways,A,At Grade,1
197,H02,Aqueduct-N Conduit Av,Queens,40.668234,-73.834058,Manhattan,Rockaways,A,At Grade,0
198,H03,Howard Beach-JFK Airport,Queens,40.660476,-73.830301,Manhattan,Rockaways,A,At Grade,1
199,H04,Broad Channel,Queens,40.608382,-73.815925,Inbound,Rockaways,A S,At Grade,0
200,H12,Beach 90 St,Queens,40.588034,-73.813641,Inbound,Rockaway Park,A S,Viaduct,0
201,H13,Beach 98 St,Queens,40.585307,-73.820558,Inbound,Rockaway Park,A S,Viaduct,0
202,H14,Beach 105 St,Queens,40.583209,-73.827559,Inbound,Rockaway Park,A S,Viaduct,0
203,H15,Rockaway Park-Beach 116 St,Queens,40.580903,-73.835592,Inbound,Last Stop,A S,At Grade,1
204,H06,Beach 67 St,Queens,40.590927,-73.796924,Manhattan,Far Rockaway,A,Viaduct,1
205,H07,Beach 60 St,Queens,40.592374,-73.788522,Manhattan,Far Rockaway,A,Viaduct,0
206,H08,Beach 44 St,Queens,40.592943,-73.776013,Manhattan,Far Rockaway,A,Viaduct,0
207,H09,Beach 36 St,Queens,40.595398,-73.768175,Manhattan,Far Rockaway,A,Viaduct,0
208,H10,Beach 25 St,Queens,40.600066,-73.761353,Manhattan,Far Rockaway,A,Viaduct,0
209,H11,Far Rockaway-Mott Av,Queens,40.603995,-73.755405,Manhattan,Last Stop,A,Viaduct,1
210,D01,Norwood-205 St,Bronx,40.874811,-73.878855,Last Stop,Manhattan,D,Subway,0
211,D03,Bedford Park Blvd,Bronx,40.873244,-73.887138,Northbound,Manhattan,B D,Subway,1
212,D04,Kingsbridge Rd,Bronx,40.866978,-73.893509,Northbound,Manhattan,B D,Subway,1
213,D05,Fordham Rd,Bronx,40.861296,-73.897749,Northbound,Manhattan,B D,Subway,0
214,D06,182-183 Sts,Bronx,40.856093,-73.900741,Northbound,Manhattan,B D,Subway,0
215,D07,Tremont Av,Bronx,40.85041,-73.905227,Northbound,Manhattan,B D,Subway,1
216,D08,174-175 Sts,Bronx,40.8459,-73.910136,Northbound,Manhattan,B D,Subway,0
217,D09,170 St,Bronx,40.839306,-73.9134,Northbound,Manhattan,B D,Subway,0
218,D10,167 St,Bronx,40.833771,-73.91844,Northbound,Manhattan,B D,Subway,0
219,D11,161 St-Yankee Stadium,Bronx,40.827905,-73.925651,Northbound,Manhattan,B D,Subway,1
220,D12,155 St,Manhattan,40.830135,-73.938209,The Bronx,Downtown,B D,Subway,0
221,B04,21 St-Queensbridge,Queens,40.754203,-73.942836,Outbound,Manhattan,F,Subway,1
222,B06,Roosevelt Island,Manhattan,40.759145,-73.95326,Queens,Downtown,F,Subway,1
223,B08,Lexington Av/63 St,Manhattan,40.764629,-73.966113,Uptown & Queens,Downtown,F Q,Subway,1
224,B10,57 St,Manhattan,40.763972,-73.97745,Uptown,Downtown,F,Subway,0
225,D15,47-50 Sts-Rockefeller Ctr,Manhattan,40.758663,-73.981329,Uptown,Downtown,B D F M,Subway,1
226,D16,42 St-Bryant Pk,Manhattan,40.754222,-73.984569,Uptown,Downtown,B D F M,Subway,0
227,D17,34 St-Herald Sq,Manhattan,40.749719,-73.987823,Uptown,Downtown,B D F M,Subway,1
228,D18,23 St,Manhattan,40.742878,-73.992821,Uptown,Downtown,F M,Subway,0
229,D19,14 St,Manhattan,40.738228,-73.996209,Uptown,Downtown,F M,Subway,2
230,D21,Broadway-Lafayette St,Manhattan,40.725297,-73.996204,Uptown,Downtown,B D F M,Subway,1
231,D22,Grand St,Manhattan,40.718267,-73.993753,Uptown,Brooklyn,B D,Subway,0
232,F14,2 Av,Manhattan,40.723402,-73.989938,Uptown,Downtown,F,Subway,0
233,F15,Delancey St-Essex St,Manhattan,40.718611,-73.988114,Uptown,Brooklyn,F,Subway,0
234,F16,East Broadway,Manhattan,40.713715,-73.990173,Uptown,Brooklyn,F,Subway,0
235,F18,York St,Brooklyn,40.701397,-73.986751,Manhattan,Southbound,F,Subway,0
236,F20,Bergen St,Brooklyn,40.686145,-73.990862,Northbound,Southbound,F G,Subway,0
237,F21,Carroll St,Brooklyn,40.680303,-73.995048,Northbound,Southbound,F G,Subway,0
238,F22,Smith-9 Sts,Brooklyn,40.67358,-73.995959,Northbound,Southbound,F G,Viaduct,0
239,F23,4 Av-9 St,Brooklyn,40.670272,-73.989779,Northbound,Southbound,F G,Viaduct,0
240,F24,7 Av,Brooklyn,40.666271,-73.980305,Northbound,Southbound,F G,Subway,1
241,F25,15 St-Prospect Park,Brooklyn,40.660365,-73.979493,Northbound,Southbound,F G,Subway,0
242,F26,Fort Hamilton Pkwy,Brooklyn,40.650782,-73.975776,Northbound,Southbound,F G,Subway,0
243,F27,Church Av,Brooklyn,40.644041,-73.979678,Northbound,Southbound,F G,Subway,1
244,F29,Ditmas Av,Brooklyn,40.636119,-73.978172,Manhattan,Southbound,F,Elevated,0
245,F30,18 Av,Brooklyn,40.629755,-73.976971,Manhattan,Southbound,F,Elevated,0
246,F31,Avenue I,Brooklyn,40.625322,-73.976127,Manhattan,Southbound,F,Elevated,0
247,F32,Bay Pkwy,Brooklyn,40.620769,-73.975264,Manhattan,Southbound,F,Elevated,0
248,F33,Avenue N,Brooklyn,40.61514,-73.974197,Manhattan,Southbound,F,Elevated,0
249,F34,Avenue P,Brooklyn,40.608944,-73.973022,Manhattan,Southbound,F,Elevated,0
250,F35,Kings Hwy,Brooklyn,40.603217,-73.972361,Manhattan,Southbound,F,Elevated,0
251,F36,Avenue U,Brooklyn,40.596063,-73.973357,Manhattan,Coney Island,F,Elevated,0
252,F38,Avenue X,Brooklyn,40.58962,-73.97425,Manhattan,Coney Island,F,Elevated,0
253,F39,Neptune Av,Brooklyn,40.581011,-73.974574,Manhattan,Coney Island,F,Elevated,0
254,F01,Jamaica-179 St,Queens,40.712646,-73.783817,Last Stop,Manhattan,F,Subway,1
255,F02,169 St,Queens,40.71047,-73.793604,Jamaica,Manhattan,F,Subway,0
256,F03,Parsons Blvd,Queens,40.707564,-73.803326,Jamaica,Manhattan,F,Subway,0
257,F04,Sutphin Blvd,Queens,40.70546,-73.810708,Jamaica,Manhattan,F,Subway,0
258,F05,Briarwood,Queens,40.709179,-73.820574,Jamaica,Manhattan,E F,Subway,0
259,F06,Kew Gardens-Union Tpke,Queens,40.714441,-73.831008,Jamaica,Manhattan,E F,Subway,1
260,F07,75 Av,Queens,40.718331,-73.837324,Jamaica,Manhattan,E F,Subway,0
261,G08,Forest Hills-71 Av,Queens,40.721691,-73.844521,Outbound,Manhattan,E F M R,Subway,1
262,G09,67 Av,Queens,40.726523,-73.852719,Outbound,Manhattan,M R,Subway,0
263,G10,63 Dr-Rego Park,Queens,40.729846,-73.861604,Outbound,Manhattan,M R,Subway,0
264,G11,Woodhaven Blvd,Queens,40.733106,-73.869229,Outbound,Manhattan,M R,Subway,0
265,G12,Grand Av-Newtown,Queens,40.737015,-73.877223,Outbound,Manhattan,M R,Subway,0
266,G13,Elmhurst Av,Queens,40.742454,-73.882017,Outbound,Manhattan,M R,Subway,0
267,G14,Jackson Hts-Roosevelt Av,Queens,40.746644,-73.891338,Outbound,Manhattan,E F M R,Subway,1
268,G15,65 St,Queens,40.749669,-73.898453,Outbound,Manhattan,M R,Subway,0
269,G16,Northern Blvd,Queens,40.752885,-73.906006,Outbound,Manhattan,M R,Subway,0
270,G18,46 St,Queens,40.756312,-73.913333,Outbound,Manhattan,M R,Subway,0
271,G19,Steinway St,Queens,40.756879,-73.92074,Outbound,Manhattan,M R,Subway,0
272,G20,36 St,Queens,40.752039,-73.928781,Outbound,Manhattan,M R,Subway,0
273,G21,Queens Plaza,Queens,40.748973,-73.937243,Outbound,Manhattan,E M R,Subway,1
274,F09,Court Sq-23 St,Queens,40.747846,-73.946,Outbound,Manhattan,E M,Subway,2
275,F11,Lexington Av/53 St,Manhattan,40.757552,-73.969055,Queens,Downtown,E M,Subway,1
276,F12,5 Av/53 St,Manhattan,40.760167,-73.975224,Queens,Downtown,E M,Subway,0
277,D14,7 Av,Manhattan,40.762862,-73.981637,Outbound,Downtown,E B D,Subway,0
278,G05,Jamaica Center-Parsons/Archer,Queens,40.702147,-73.801109,Last Stop,Manhattan,E J Z,Subway,1
279,G06,Sutphin Blvd-Archer Av-JFK Airport,Queens,40.700486,-73.807969,Jamaica,Manhattan,E J Z,Subway,1
280,G07,Jamaica-Van Wyck,Queens,40.702566,-73.816859,Jamaica,Manhattan,E,Subway,1
281,G22,Court Sq,Queens,40.746554,-73.943832,Last Stop,Brooklyn,G,Subway,1
282,G24,21 St,Queens,40.744065,-73.949724,Court Square,Brooklyn,G,Subway,0
283,G26,Greenpoint Av,Brooklyn,40.731352,-73.954449,Queens,Southbound,G,Subway,1
284,G28,Nassau Av,Brooklyn,40.724635,-73.951277,Queens,Southbound,G,Subway,0
285,G29,Metropolitan Av,Brooklyn,40.712792,-73.951418,Queens,Southbound,G,Subway,1
286,G30,Broadway,Brooklyn,40.706092,-73.950308,Queens,Southbound,G,Subway,0
287,G31,Flushing Av,Brooklyn,40.700377,-73.950234,Queens,Southbound,G,Subway,0
288,G32,Myrtle-Willoughby Avs,Brooklyn,40.694568,-73.949046,Queens,Southbound,G,Subway,0
289,G33,Bedford-Nostrand Avs,Brooklyn,40.689627,-73.953522,Queens,Southbound,G,Subway,0
290,G34,Classon Av,Brooklyn,40.688873,-73.96007,Queens,Southbound,G,Subway,0
291,G35,Clinton-Washington Avs,Brooklyn,40.688089,-73.966839,Queens,Southbound,G,Subway,0
292,G36,Fulton St,Brooklyn,40.687119,-73.975375,Queens,Southbound,G,Subway,0
293,101,Van Cortlandt Park-242 St,Bronx,40.889248,-73.898583,Last Stop,Manhattan,1,Elevated,0
294,103,238 St,Bronx,40.884667,-73.90087,Van Cortlandt,Manhattan,1,Elevated,0
295,104,231 St,Bronx,40.878856,-73.904834,Van Cortlandt,Manhattan,1,Elevated,1
296,106,Marble Hill-225 St,Manhattan,40.874561,-73.909831,The Bronx,Downtown,1,Elevated,0
297,107,215 St,Manhattan,40.869444,-73.915279,The Bronx,Downtown,1,Elevated,0
298,108,207 St,Manhattan,40.864621,-73.918822,The Bronx,Downtown,1,Elevated,0
299,109,Dyckman St,Manhattan,40.860531,-73.925536,The Bronx,Downtown,1,Elevated,1
300,110,191 St,Manhattan,40.855225,-73.929412,The Bronx,Downtown,1,Subway,0
301,111,181 St,Manhattan,40.849505,-73.933596,The Bronx,Downtown,1,Subway,0
302,112,168 St-Washington Hts,Manhattan,40.840556,-73.940133,Uptown,Downtown,1,Subway,0
303,113,157 St,Manhattan,40.834041,-73.94489,Uptown,Downtown,1,Subway,0
304,114,145 St,Manhattan,40.826551,-73.95036,Uptown,Downtown,1,Subway,0
305,115,137 St-City College,Manhattan,40.822008,-73.953676,Uptown,Downtown,1,Subway,0
306,116,125 St,Manhattan,40.815581,-73.958372,Uptown,Downtown,1,Elevated,0
307,117,116 St-Columbia University,Manhattan,40.807722,-73.96411,Uptown,Downtown,1,Subway,0
308,118,Cathedral Pkwy (110 St),Manhattan,40.803967,-73.966847,Uptown,Downtown,1,Subway,0
309,119,103 St,Manhattan,40.799446,-73.968379,Uptown,Downtown,1,Subway,0
310,120,96 St,Manhattan,40.793919,-73.972323,Uptown,Downtown,1 2 3,Subway,1
311,121,86 St,Manhattan,40.788644,-73.976218,Uptown,Downtown,1,Subway,0
312,122,79 St,Manhattan,40.783934,-73.979917,Uptown,Downtown,1,Subway,0
313,123,72 St,Manhattan,40.778453,-73.98197,Uptown,Downtown,1 2 3,Subway,1
314,124,66 St-Lincoln Center,Manhattan,40.77344,-73.982209,Uptown,Downtown,1,Subway,1
315,125,59 St-Columbus Circle,Manhattan,40.768247,-73.981929,Uptown,Downtown,1,Subway,1
316,126,50 St,Manhattan,40.761728,-73.983849,Uptown,Downtown,1,Subway,0
317,127,Times Sq-42 St,Manhattan,40.75529,-73.987495,Uptown,Downtown,1 2 3,Subway,1
318,128,34 St-Penn Station,Manhattan,40.750373,-73.991057,Uptown,Downtown,1 2 3,Subway,1
319,129,28 St,Manhattan,40.747215,-73.993365,Uptown,Downtown,1,Subway,0
320,130,23 St,Manhattan,40.744081,-73.995657,Uptown,Downtown,1,Subway,0
321,131,18 St,Manhattan,40.74104,-73.997871,Uptown,Downtown,1,Subway,0
322,132,14 St,Manhattan,40.737826,-74.000201,Uptown,Downtown,1 2 3,Subway,0
323,133,Christopher St-Stonewall,Manhattan,40.733422,-74.002906,Uptown,Downtown,1,Subway,0
324,134,Houston St,Manhattan,40.728251,-74.005367,Uptown,Downtown,1,Subway,0
325,135,Canal St,Manhattan,40.722854,-74.006277,Uptown,Downtown,1,Subway,0
326,136,Franklin St,Manhattan,40.719318,-74.006886,Uptown,Downtown,1,Subway,0
327,137,Chambers St,Manhattan,40.715478,-74.009266,Uptown,Downtown,1 2 3,Subway,1
328,138,WTC Cortlandt,Manhattan,40.711835,-74.012188,Uptown,Downtown,1,Subway,1
329,139,Rector St,Manhattan,40.707513,-74.013783,Uptown,Downtown,1,Subway,0
330,142,South Ferry,Manhattan,40.702068,-74.013664,Uptown,Last Stop,1,Subway,1
331,228,Park Place,Manhattan,40.713051,-74.008811,Uptown,Brooklyn,2 3,Subway,0
332,229,Fulton St,Manhattan,40.709416,-74.006571,Uptown,Brooklyn,2 3,Subway,1
333,230,Wall St,Manhattan,40.706821,-74.0091,Uptown,Brooklyn,2 3,Subway,0
334,231,Clark St,Brooklyn,40.697466,-73.993086,Manhattan,Outbound,2 3,Subway,0
335,232,Borough Hall,Brooklyn,40.693219,-73.989998,Manhattan,Outbound,2 3,Subway,1
336,233,Hoyt St,Brooklyn,40.690545,-73.985065,Manhattan,Outbound,2 3,Subway,2
337,234,Nevins St,Brooklyn,40.688246,-73.980492,Manhattan,Outbound,2 3 4 5,Subway,0
338,235,Atlantic Av-Barclays Ctr,Brooklyn,40.684359,-73.977666,Manhattan,Outbound,2 3 4 5,Subway,1
339,236,Bergen St,Brooklyn,40.680829,-73.975098,Manhattan,Outbound,2 3,Subway,0
340,237,Grand Army Plaza,Brooklyn,40.675235,-73.971046,Manhattan,Outbound,2 3,Subway,0
341,238,Eastern Pkwy-Brooklyn Museum,Brooklyn,40.671987,-73.964375,Manhattan,Outbound,2 3,Subway,1
342,239,Franklin Av-Medgar Evers College,Brooklyn,40.670682,-73.958131,Manhattan,Outbound,2 3 4 5,Subway,0
343,248,Nostrand Av,Brooklyn,40.669847,-73.950466,Manhattan,Outbound,3,Subway,0
344,249,Kingston Av,Brooklyn,40.669399,-73.942161,Manhattan,Outbound,3,Subway,0
345,250,Crown Hts-Utica Av,Brooklyn,40.668897,-73.932942,Manhattan,Outbound,3 4,Subway,1
346,251,Sutter Av-Rutland Rd,Brooklyn,40.664717,-73.92261,Manhattan,New Lots,3,Elevated,0
347,252,Saratoga Av,Brooklyn,40.661453,-73.916327,Manhattan,New Lots,3,Elevated,0
348,253,Rockaway Av,Brooklyn,40.662549,-73.908946,Manhattan,New Lots,3,Elevated,0
349,254,Junius St,Brooklyn,40.663515,-73.902447,Manhattan,New Lots,3,Elevated,0
350,255,Pennsylvania Av,Brooklyn,40.664635,-73.894895,Manhattan,New Lots,3,Elevated,0
351,256,Van Siclen Av,Brooklyn,40.665449,-73.889395,Manhattan,New Lots,3,Elevated,0
352,257,New Lots Av,Brooklyn,40.666235,-73.884079,Manhattan,Last Stop,3,Elevated,0
353,241,President St-Medgar Evers College,Brooklyn,40.667883,-73.950683,Manhattan,Flatbush,2 5,Subway,0
354,242,Sterling St,Brooklyn,40.662742,-73.95085,Manhattan,Flatbush,2 5,Subway,0
355,243,Winthrop St,Brooklyn,40.656652,-73.9502,Manhattan,Flatbush,2 5,Subway,0
356,244,Church Av,Brooklyn,40.650843,-73.949575,Manhattan,Flatbush,2 5,Subway,1
357,245,Beverly Rd,Brooklyn,40.645098,-73.948959,Manhattan,Flatbush,2 5,Subway,0
358,246,Newkirk Av-Little Haiti,Brooklyn,40.639967,-73.948411,Manhattan,Flatbush,2 5,Subway,0
359,247,Flatbush Av-Brooklyn College,Brooklyn,40.632836,-73.947642,Manhattan,Last Stop,2 5,Subway,1
360,601,Pelham Bay Park,Bronx,40.852462,-73.828121,Last Stop,Manhattan,6,Elevated,1
361,602,Buhre Av,Bronx,40.84681,-73.832569,Pelham Bay,Manhattan,6,Elevated,0
362,603,Middletown Rd,Bronx,40.843863,-73.836322,Pelham Bay,Manhattan,6,Elevated,0
363,604,Westchester Sq-E Tremont Av,Bronx,40.839892,-73.842952,Pelham Bay,Manhattan,6,Elevated,0
364,606,Zerega Av,Bronx,40.836488,-73.847036,Pelham Bay,Manhattan,6,Elevated,0
365,607,Castle Hill Av,Bronx,40.834255,-73.851222,Pelham Bay,Manhattan,6,Elevated,0
366,608,Parkchester,Bronx,40.833226,-73.860816,Northbound,Manhattan,6,Elevated,0
367,609,St Lawrence Av,Bronx,40.831509,-73.867618,Northbound,Manhattan,6,Elevated,0
368,610,Morrison Av-Soundview,Bronx,40.829521,-73.874516,Northbound,Manhattan,6,Elevated,0
369,611,Elder Av,Bronx,40.828584,-73.879159,Northbound,Manhattan,6,Elevated,0
370,612,Whitlock Av,Bronx,40.826525,-73.886283,Northbound,Manhattan,6,Elevated,0
371,613,Hunts Point Av,Bronx,40.820948,-73.890549,Northbound,Manhattan,6,Subway,1
372,614,Longwood Av,Bronx,40.816104,-73.896435,Northbound,Manhattan,6,Subway,0
373,615,E 149 St,Bronx,40.812118,-73.904098,Northbound,Manhattan,6,Subway,1
374,616,E 143 St-St Mary's St,Bronx,40.808719,-73.907657,Northbound,Manhattan,6,Subway,0
375,617,Cypress Av,Bronx,40.805368,-73.914042,Northbound,Manhattan,6,Subway,0
376,618,Brook Av,Bronx,40.807566,-73.91924,Northbound,Manhattan,6,Subway,0
377,619,3 Av-138 St,Bronx,40.810476,-73.926138,Northbound,Manhattan,6,Subway,0
378,401,Woodlawn,Bronx,40.886037,-73.878751,Last Stop,Manhattan,4,Elevated,0
379,402,Mosholu Pkwy,Bronx,40.87975,-73.884655,Woodlawn,Manhattan,4,Elevated,0
380,405,Bedford Park Blvd-Lehman College,Bronx,40.873412,-73.890064,Northbound,Manhattan,4,Elevated,0
381,406,Kingsbridge Rd,Bronx,40.86776,-73.897174,Northbound,Manhattan,4,Elevated,0
382,407,Fordham Rd,Bronx,40.862803,-73.901034,Northbound,Manhattan,4,Elevated,1
383,408,183 St,Bronx,40.858407,-73.903879,Northbound,Manhattan,4,Elevated,0
384,409,Burnside Av,Bronx,40.853453,-73.907684,Northbound,Manhattan,4,Elevated,0
385,410,176 St,Bronx,40.84848,-73.911794,Northbound,Manhattan,4,Elevated,0
386,411,Mt Eden Av,Bronx,40.844434,-73.914685,Northbound,Manhattan,4,Elevated,0
387,412,170 St,Bronx,40.840075,-73.917791,Northbound,Manhattan,4,Elevated,1
388,413,167 St,Bronx,40.835537,-73.9214,Northbound,Manhattan,4,Elevated,0
389,414,161 St-Yankee Stadium,Bronx,40.827994,-73.925831,Northbound,Manhattan,4,Elevated,1
390,415,149 St-Grand Concourse,Bronx,40.818375,-73.927351,Northbound,Manhattan,4,Subway,0
391,416,138 St-Grand Concourse,Bronx,40.813224,-73.929849,Northbound,Manhattan,4 5,Subway,0
392,621,125 St,Manhattan,40.804138,-73.937594,The Bronx,Downtown,4 5 6,Subway,1
393,622,116 St,Manhattan,40.798629,-73.941617,The Bronx,Downtown,6,Subway,0
394,623,110 St,Manhattan,40.79502,-73.94425,The Bronx,Downtown,6,Subway,0
395,624,103 St,Manhattan,40.7906,-73.947478,The Bronx,Downtown,6,Subway,0
396,625,96 St,Manhattan,40.785672,-73.95107,The Bronx,Downtown,6,Subway,0
397,626,86 St,Manhattan,40.779492,-73.955589,Uptown,Downtown,4 5 6,Subway,2
398,627,77 St,Manhattan,40.77362,-73.959874,Uptown,Downtown,6,Subway,0
399,628,68 St-Hunter College,Manhattan,40.768141,-73.96387,Uptown,Downtown,6,Subway,0
400,629,59 St,Manhattan,40.762526,-73.967967,Uptown,Downtown,4 5 6,Subway,0
401,630,51 St,Manhattan,40.757107,-73.97192,Uptown,Downtown,6,Subway,1
402,631,Grand Central-42 St,Manhattan,40.751776,-73.976848,Uptown,Downtown,4 5 6,Subway,1
403,632,33 St,Manhattan,40.746081,-73.982076,Uptown,Downtown,6,Subway,0
404,633,28 St,Manhattan,40.74307,-73.984264,Uptown,Downtown,6,Subway,2
405,634,23 St,Manhattan,40.739864,-73.986599,Uptown,Downtown,6,Subway,1
406,635,14 St-Union Sq,Manhattan,40.734673,-73.989951,Uptown,Downtown,4 5 6,Subway,0
407,636,Astor Pl,Manhattan,40.730054,-73.99107,Uptown,Downtown,6,Subway,0
408,637,Bleecker St,Manhattan,40.725915,-73.994659,Uptown,Downtown,6,Subway,1
409,638,Spring St,Manhattan,40.722301,-73.997141,Uptown,Downtown,6,Subway,0
410,639,Canal St,Manhattan,40.718803,-74.000193,Uptown,Downtown,6,Subway,1
411,640,Brooklyn Bridge-City Hall,Manhattan,40.713065,-74.004131,Uptown,Downtown,4 5 6,Subway,1
412,418,Fulton St,Manhattan,40.710368,-74.009509,Uptown,Downtown,4 5,Subway,1
413,419,Wall St,Manhattan,40.707557,-74.011862,Uptown,Downtown,4 5,Subway,0
414,420,Bowling Green,Manhattan,40.704817,-74.014065,Uptown,Downtown,4 5,Subway,1
415,423,Borough Hall,Brooklyn,40.692404,-73.990151,Manhattan,Outbound,4 5,Subway,2
416,201,Wakefield-241 St,Bronx,40.903125,-73.85062,Last Stop,Manhattan,2,Elevated,0
417,204,Nereid Av,Bronx,40.898379,-73.854376,Northbound,Manhattan,2 5,Elevated,0
418,205,233 St,Bronx,40.893193,-73.857473,Northbound,Manhattan,2 5,Elevated,1
419,206,225 St,Bronx,40.888022,-73.860341,Northbound,Manhattan,2 5,Elevated,0
420,207,219 St,Bronx,40.883895,-73.862633,Northbound,Manhattan,2 5,Elevated,0
421,208,Gun Hill Rd,Bronx,40.87785,-73.866256,Northbound,Manhattan,2 5,Elevated,1
422,209,Burke Av,Bronx,40.871356,-73.867164,Northbound,Manhattan,2 5,Elevated,0
423,210,Allerton Av,Bronx,40.865462,-73.867352,Northbound,Manhattan,2 5,Elevated,0
424,211,Pelham Pkwy,Bronx,40.857192,-73.867615,Northbound,Manhattan,2 5,Elevated,1
425,212,Bronx Park East,Bronx,40.848828,-73.868457,Northbound,Manhattan,2 5,Elevated,0
426,213,E 180 St,Bronx,40.841894,-73.873488,Northbound,Manhattan,2 5,Elevated,1
427,214,West Farms Sq-E Tremont Av,Bronx,40.840295,-73.880049,Northbound,Manhattan,2 5,Elevated,0
428,215,174 St,Bronx,40.837288,-73.887734,Northbound,Manhattan,2 5,Elevated,0
429,216,Freeman St,Bronx,40.829993,-73.891865,Northbound,Manhattan,2 5,Elevated,0
430,217,Simpson St,Bronx,40.824073,-73.893064,Northbound,Manhattan,2 5,Elevated,1
431,218,Intervale Av,Bronx,40.822181,-73.896736,Northbound,Manhattan,2 5,Elevated,0
432,219,Prospect Av,Bronx,40.819585,-73.90177,Northbound,Manhattan,2 5,Elevated,0
433,220,Jackson Av,Bronx,40.81649,-73.907807,Northbound,Manhattan,2 5,Elevated,0
434,221,3 Av-149 St,Bronx,40.816109,-73.917757,Northbound,Manhattan,2 5,Subway,1
435,222,149 St-Grand Concourse,Bronx,40.81841,-73.926718,Northbound,Manhattan,2 5,Subway,0
436,301,Harlem-148 St,Manhattan,40.82388,-73.93647,Last Stop,Downtown,3,Subway,0
437,302,145 St,Manhattan,40.820421,-73.936245,Harlem,Downtown,3,Subway,0
438,224,135 St,Manhattan,40.814229,-73.94077,Uptown,Downtown,2 3,Subway,1
439,225,125 St,Manhattan,40.807754,-73.945495,Uptown,Downtown,2 3,Subway,0
440,226,116 St,Manhattan,40.802098,-73.949625,Uptown,Downtown,2 3,Subway,0
441,227,Central Park North (110 St),Manhattan,40.799075,-73.951822,Uptown,Downtown,2 3,Subway,0
442,501,Eastchester-Dyre Av,Bronx,40.8883,-73.830834,Last Stop,Manhattan,5,At Grade,0
443,502,Baychester Av,Bronx,40.878663,-73.838591,Eastchester,Manhattan,5,Open Cut,0
444,503,Gun Hill Rd,Bronx,40.869526,-73.846384,Eastchester,Manhattan,5,Open Cut,1
445,504,Pelham Pkwy,Bronx,40.858985,-73.855359,Eastchester,Manhattan,5,Open Cut,0
446,505,Morris Park,Bronx,40.854364,-73.860495,Eastchester,Manhattan,5,Open Cut,0
447,701,Flushing-Main St,Queens,40.7596,-73.83003,Last Stop,Manhattan,7,Subway,1
448,702,Mets-Willets Point,Queens,40.754622,-73.845625,Outbound,Manhattan,7,Elevated,0
449,705,111 St,Queens,40.75173,-73.855334,Outbound,Manhattan,7,Elevated,0
450,706,103 St-Corona Plaza,Queens,40.749865,-73.8627,Outbound,Manhattan,7,Elevated,0
451,707,Junction Blvd,Queens,40.749145,-73.869527,Outbound,Manhattan,7,Elevated,1
452,708,90 St-Elmhurst Av,Queens,40.748408,-73.876613,Outbound,Manhattan,7,Elevated,0
453,709,82 St-Jackson Hts,Queens,40.747659,-73.883697,Outbound,Manhattan,7,Elevated,0
454,710,74 St-Broadway,Queens,40.746848,-73.891394,Outbound,Manhattan,7,Elevated,1
455,711,69 St,Queens,40.746325,-73.896403,Outbound,Manhattan,7,Elevated,0
456,712,61 St-Woodside,Queens,40.74563,-73.902984,Outbound,Manhattan,7,Elevated,1
457,713,52 St,Queens,40.744149,-73.912549,Outbound,Manhattan,7,Elevated,0
458,714,46 St-Bliss St,Queens,40.743132,-73.918435,Outbound,Manhattan,7,Elevated,0
459,715,40 St-Lowery St,Queens,40.743781,-73.924016,Outbound,Manhattan,7,Elevated,0
460,716,33 St-Rawson St,Queens,40.744587,-73.930997,Outbound,Manhattan,7,Elevated,0
461,718,Queensboro Plaza,Queens,40.750582,-73.940202,Outbound,Manhattan,7,Elevated,0
462,R09,Queensboro Plaza,Queens,40.750582,-73.940202,Astoria,Manhattan,N W,Elevated,0
463,719,Court Sq,Queens,40.747023,-73.945264,Outbound,Manhattan,7,Elevated,1
464,720,Hunters Point Av,Queens,40.742216,-73.948916,Outbound,Manhattan,7,Subway,0
465,721,Vernon Blvd-Jackson Av,Queens,40.742626,-73.953581,Outbound,Manhattan,7,Subway,0
466,723,Grand Central-42 St,Manhattan,40.751431,-73.976041,Queens,Hudson Yards,7,Subway,1
467,724,5 Av,Manhattan,40.753821,-73.981963,Queens,Hudson Yards,7,Subway,0
468,725,Times Sq-42 St,Manhattan,40.755477,-73.987691,Queens,Hudson Yards,7,Subway,1
469,902,Times Sq-42 St,Manhattan,40.755983,-73.986229,Last Stop,Grand Central,S,Subway,1
470,901,Grand Central-42 St,Manhattan,40.752769,-73.979189,Times Square,Last Stop,S,Subway,1
471,726,34 St-Hudson Yards,Manhattan,40.755882,-74.00191,Last Stop,Queens,7,Subway,1
472,Q05,96 St,Manhattan,40.784318,-73.947152,Last Stop,Downtown,Q,Subway,1
473,Q04,86 St,Manhattan,40.777891,-73.951787,Uptown,Downtown,Q,Subway,1
474,Q03,72 St,Manhattan,40.768799,-73.958424,Uptown,Downtown,Q,Subway,1
475,S31,St George,Staten Island,40.643748,-74.073643,Last Stop,South Shore,SIR,Open Cut,1
476,S30,Tompkinsville,Staten Island,40.636949,-74.074835,Ferry,South Shore,SIR,At Grade,0
477,S29,Stapleton,Staten Island,40.627915,-74.075162,Ferry,South Shore,SIR,Elevated,0
478,S28,Clifton,Staten Island,40.621319,-74.071402,Ferry,South Shore,SIR,Elevated,0
479,S27,Grasmere,Staten Island,40.603117,-74.084087,Ferry,South Shore,SIR,Open Cut,0
480,S26,Old Town,Staten Island,40.596612,-74.087368,Ferry,South Shore,SIR,Embankment,0
481,S25,Dongan Hills,Staten Island,40.588849,-74.09609,Ferry,South Shore,SIR,Embankment,1
482,S24,Jefferson Av,Staten Island,40.583591,-74.103338,Ferry,South Shore,SIR,Embankment,0
483,S23,Grant City,Staten Island,40.578965,-74.109704,Ferry,South Shore,SIR,Open Cut,0
484,S22,New Dorp,Staten Island,40.57348,-74.11721,Ferry,South Shore,SIR,Open Cut,1
485,S21,Oakwood Heights,Staten Island,40.56511,-74.12632,Ferry,South Shore,SIR,Open Cut,0
486,S20,Bay Terrace,Staten Island,40.5564,-74.136907,Ferry,South Shore,SIR,Embankment,0
487,S19,Great Kills,Staten Island,40.551231,-74.151399,Ferry,South Shore,SIR,Open Cut,1
488,S18,Eltingville,Staten Island,40.544601,-74.16457,Ferry,South Shore,SIR,Embankment,0
489,S17,Annadale,Staten Island,40.54046,-74.178217,Ferry,South Shore,SIR,Open Cut,0
490,S16,Huguenot,Staten Island,40.533674,-74.191794,Ferry,South Shore,SIR,Open Cut,0
491,S15,Prince's Bay,Staten Island,40.525507,-74.200064,Ferry,South Shore,SIR,Open Cut,0
492,S14,Pleasant Plains,Staten Island,40.52241,-74.217847,Ferry,South Shore,SIR,Embankment,0
493,S13,Richmond Valley,Staten Island,40.519631,-74.229141,Ferry,Tottenville,SIR,Open Cut,0
494,S09,Tottenville,Staten Island,40.512764,-74.251961,Ferry,Last Stop,SIR,At Grade,1
495,S11,Arthur Kill,Staten Island,40.516578,-74.242096,Ferry,Tottenville,SIR,At Grade,1
